[
  {
    "code": "01",
    "region": "84",
    "chefLieu": "01053",
    "nom": "Ain",
    "typeLiaison": 5,
    "zone": "metro",
    "latitude": 46.064217,
    "longitude": 5.449417,
    "slug": "ain"
  },
  {
    "code": "02",
    "region": "32",
    "chefLieu": "02408",
    "nom": "Aisne",
    "typeLiaison": 5,
    "zone": "metro",
    "latitude": 49.453534,
    "longitude": 3.608257,
    "slug": "aisne"
  },
  {
    "code": "03",
    "region": "84",
    "chefLieu": "03190",
    "nom": "Allier",
    "typeLiaison": 5,
    "zone": "metro",
    "latitude": 46.3673,
    "longitude": 3.142987,
    "slug": "allier"
  },
  {
    "code": "04",
    "region": "93",
    "chefLieu": "04070",
    "nom": "Alpes-de-Haute-Provence",
    "typeLiaison": 4,
    "zone": "metro",
    "latitude": 44.163892,
    "longitude": 6.232415,
    "slug": "alpes-de-haute-provence"
  },
  {
    "code": "05",
    "region": "93",
    "chefLieu": "05061",
    "nom": "Hautes-Alpes",
    "typeLiaison": 4,
    "zone": "metro",
    "latitude": 44.656662,
    "longitude": 6.247819,
    "slug": "hautes-alpes"
  },
  {
    "code": "06",
    "region": "93",
    "chefLieu": "06088",
    "nom": "Alpes-Maritimes",
    "typeLiaison": 4,
    "zone": "metro",
    "latitude": 43.920558,
    "longitude": 7.176664,
    "slug": "alpes-maritimes"
  },
  {
    "code": "07",
    "region": "84",
    "chefLieu": "07186",
    "nom": "Ardèche",
    "typeLiaison": 5,
    "zone": "metro",
    "latitude": 44.815229,
    "longitude": 4.374054,
    "slug": "ardeche"
  },
  {
    "code": "08",
    "region": "44",
    "chefLieu": "08105",
    "nom": "Ardennes",
    "typeLiaison": 4,
    "zone": "metro",
    "latitude": 49.698414,
    "longitude": 4.709415,
    "slug": "ardennes"
  },
  {
    "code": "09",
    "region": "76",
    "chefLieu": "09122",
    "nom": "Ariège",
    "typeLiaison": 5,
    "zone": "metro",
    "latitude": 42.944,
    "longitude": 1.501,
    "slug": "ariege"
  },
  {
    "code": "10",
    "region": "44",
    "chefLieu": "10387",
    "nom": "Aube",
    "typeLiaison": 5,
    "zone": "metro",
    "latitude": 48.320393,
    "longitude": 4.125766,
    "slug": "aube"
  },
  {
    "code": "11",
    "region": "76",
    "chefLieu": "11069",
    "nom": "Aude",
    "typeLiaison": 5,
    "zone": "metro",
    "latitude": 43.054414,
    "longitude": 2.464493,
    "slug": "aude"
  },
  {
    "code": "12",
    "region": "76",
    "chefLieu": "12202",
    "nom": "Aveyron",
    "typeLiaison": 5,
    "zone": "metro",
    "latitude": 44.316638,
    "longitude": 2.64518,
    "slug": "aveyron"
  },
  {
    "code": "13",
    "region": "93",
    "chefLieu": "13055",
    "nom": "Bouches-du-Rhône",
    "typeLiaison": 4,
    "zone": "metro",
    "latitude": 43.543304,
    "longitude": 5.021764,
    "slug": "bouches-du-rhone"
  },
  {
    "code": "14",
    "region": "28",
    "chefLieu": "14118",
    "nom": "Calvados",
    "typeLiaison": 2,
    "zone": "metro",
    "latitude": 49.091042,
    "longitude": -0.356614,
    "slug": "calvados"
  },
  {
    "code": "15",
    "region": "84",
    "chefLieu": "15014",
    "nom": "Cantal",
    "typeLiaison": 2,
    "zone": "metro",
    "latitude": 45.048116,
    "longitude": 2.716409,
    "slug": "cantal"
  },
  {
    "code": "16",
    "region": "75",
    "chefLieu": "16015",
    "nom": "Charente",
    "typeLiaison": 3,
    "zone": "metro",
    "latitude": 45.66561,
    "longitude": 0.241924,
    "slug": "charente"
  },
  {
    "code": "17",
    "region": "75",
    "chefLieu": "17300",
    "nom": "Charente-Maritime",
    "typeLiaison": 3,
    "zone": "metro",
    "latitude": 45.729931,
    "longitude": -0.777828,
    "slug": "charente-maritime"
  },
  {
    "code": "18",
    "region": "24",
    "chefLieu": "18033",
    "nom": "Cher",
    "typeLiaison": 2,
    "zone": "metro",
    "latitude": 47.024685,
    "longitude": 2.426959,
    "slug": "cher"
  },
  {
    "code": "19",
    "region": "75",
    "chefLieu": "19272",
    "nom": "Corrèze",
    "typeLiaison": 3,
    "zone": "metro",
    "latitude": 45.343809,
    "longitude": 1.877742,
    "slug": "correze"
  },
  {
    "code": "21",
    "region": "27",
    "chefLieu": "21231",
    "nom": "Côte-d'Or",
    "typeLiaison": 3,
    "zone": "metro",
    "latitude": 47.46555,
    "longitude": 4.792297,
    "slug": "cote-d-or"
  },
  {
    "code": "22",
    "region": "53",
    "chefLieu": "22278",
    "nom": "Côtes-d'Armor",
    "typeLiaison": 4,
    "zone": "metro",
    "latitude": 48.451445,
    "longitude": -2.786331,
    "slug": "cotes-d-armor"
  },
  {
    "code": "23",
    "region": "75",
    "chefLieu": "23096",
    "nom": "Creuse",
    "typeLiaison": 3,
    "zone": "metro",
    "latitude": 46.059411,
    "longitude": 1.992842,
    "slug": "creuse"
  },
  {
    "code": "24",
    "region": "75",
    "chefLieu": "24322",
    "nom": "Dordogne",
    "typeLiaison": 3,
    "zone": "metro",
    "latitude": 45.142934,
    "longitude": 0.703131,
    "slug": "dordogne"
  },
  {
    "code": "25",
    "region": "27",
    "chefLieu": "25056",
    "nom": "Doubs",
    "typeLiaison": 2,
    "zone": "metro",
    "latitude": 47.066947,
    "longitude": 6.380464,
    "slug": "doubs"
  },
  {
    "code": "26",
    "region": "84",
    "chefLieu": "26362",
    "nom": "Drôme",
    "typeLiaison": 3,
    "zone": "metro",
    "latitude": 44.729879,
    "longitude": 5.238619,
    "slug": "drome"
  },
  {
    "code": "27",
    "region": "28",
    "chefLieu": "27229",
    "nom": "Eure",
    "typeLiaison": 5,
    "zone": "metro",
    "latitude": 49.075817,
    "longitude": 1.049949,
    "slug": "eure"
  },
  {
    "code": "28",
    "region": "24",
    "chefLieu": "28085",
    "nom": "Eure-et-Loir",
    "typeLiaison": 1,
    "zone": "metro",
    "latitude": 48.447452,
    "longitude": 1.377161,
    "slug": "eure-et-loir"
  },
  {
    "code": "29",
    "region": "53",
    "chefLieu": "29232",
    "nom": "Finistère",
    "typeLiaison": 2,
    "zone": "metro",
    "latitude": 48.257474,
    "longitude": -4.26304,
    "slug": "finistere"
  },
  {
    "code": "2A",
    "region": "94",
    "chefLieu": "2A004",
    "nom": "Corse-du-Sud",
    "typeLiaison": 3,
    "zone": "metro",
    "latitude": 41.871785,
    "longitude": 8.973712,
    "slug": "corse-du-sud"
  },
  {
    "code": "2B",
    "region": "94",
    "chefLieu": "2B033",
    "nom": "Haute-Corse",
    "typeLiaison": 3,
    "zone": "metro",
    "latitude": 42.421934,
    "longitude": 9.066317,
    "slug": "haute-corse"
  },
  {
    "code": "30",
    "region": "76",
    "chefLieu": "30189",
    "nom": "Gard",
    "typeLiaison": 2,
    "zone": "metro",
    "latitude": 43.959991,
    "longitude": 4.054192,
    "slug": "gard"
  },
  {
    "code": "31",
    "region": "76",
    "chefLieu": "31555",
    "nom": "Haute-Garonne",
    "typeLiaison": 3,
    "zone": "metro",
    "latitude": 43.305066,
    "longitude": 1.244925,
    "slug": "haute-garonne"
  },
  {
    "code": "32",
    "region": "76",
    "chefLieu": "32013",
    "nom": "Gers",
    "typeLiaison": 2,
    "zone": "metro",
    "latitude": 43.694554,
    "longitude": 0.459609,
    "slug": "gers"
  },
  {
    "code": "33",
    "region": "75",
    "chefLieu": "33063",
    "nom": "Gironde",
    "typeLiaison": 3,
    "zone": "metro",
    "latitude": 44.884251,
    "longitude": -0.473337,
    "slug": "gironde"
  },
  {
    "code": "34",
    "region": "76",
    "chefLieu": "34172",
    "nom": "Hérault",
    "typeLiaison": 5,
    "zone": "metro",
    "latitude": 43.591166,
    "longitude": 3.367207,
    "slug": "herault"
  },
  {
    "code": "35",
    "region": "53",
    "chefLieu": "35238",
    "nom": "Ille-et-Vilaine",
    "typeLiaison": 1,
    "zone": "metro",
    "latitude": 48.168105,
    "longitude": -1.652987,
    "slug": "ille-et-vilaine"
  },
  {
    "code": "36",
    "region": "24",
    "chefLieu": "36044",
    "nom": "Indre",
    "typeLiaison": 5,
    "zone": "metro",
    "latitude": 46.812017,
    "longitude": 1.535931,
    "slug": "indre"
  },
  {
    "code": "37",
    "region": "24",
    "chefLieu": "37261",
    "nom": "Indre-et-Loire",
    "typeLiaison": 1,
    "zone": "metro",
    "latitude": 47.223217,
    "longitude": 0.709322,
    "slug": "indre-et-loire"
  },
  {
    "code": "38",
    "region": "84",
    "chefLieu": "38185",
    "nom": "Isère",
    "typeLiaison": 5,
    "zone": "metro",
    "latitude": 45.289669,
    "longitude": 5.55148,
    "slug": "isere"
  },
  {
    "code": "39",
    "region": "27",
    "chefLieu": "39300",
    "nom": "Jura",
    "typeLiaison": 2,
    "zone": "metro",
    "latitude": 46.783104,
    "longitude": 5.729106,
    "slug": "jura"
  },
  {
    "code": "40",
    "region": "75",
    "chefLieu": "40192",
    "nom": "Landes",
    "typeLiaison": 4,
    "zone": "metro",
    "latitude": 44.010072,
    "longitude": -0.694072,
    "slug": "landes"
  },
  {
    "code": "41",
    "region": "24",
    "chefLieu": "41018",
    "nom": "Loir-et-Cher",
    "typeLiaison": 2,
    "zone": "metro",
    "latitude": 47.659385,
    "longitude": 1.414207,
    "slug": "loir-et-cher"
  },
  {
    "code": "42",
    "region": "84",
    "chefLieu": "42218",
    "nom": "Loire",
    "typeLiaison": 3,
    "zone": "metro",
    "latitude": 45.754057,
    "longitude": 4.225577,
    "slug": "loire"
  },
  {
    "code": "43",
    "region": "84",
    "chefLieu": "43157",
    "nom": "Haute-Loire",
    "typeLiaison": 3,
    "zone": "metro",
    "latitude": 45.085724,
    "longitude": 3.78593,
    "slug": "haute-loire"
  },
  {
    "code": "44",
    "region": "52",
    "chefLieu": "44109",
    "nom": "Loire-Atlantique",
    "typeLiaison": 3,
    "zone": "metro",
    "latitude": 47.346818,
    "longitude": -1.752692,
    "slug": "loire-atlantique"
  },
  {
    "code": "45",
    "region": "24",
    "chefLieu": "45234",
    "nom": "Loiret",
    "typeLiaison": 2,
    "zone": "metro",
    "latitude": 47.913784,
    "longitude": 2.320709,
    "slug": "loiret"
  },
  {
    "code": "46",
    "region": "76",
    "chefLieu": "46042",
    "nom": "Lot",
    "typeLiaison": 2,
    "zone": "metro",
    "latitude": 44.625147,
    "longitude": 1.596335,
    "slug": "lot"
  },
  {
    "code": "47",
    "region": "75",
    "chefLieu": "47001",
    "nom": "Lot-et-Garonne",
    "typeLiaison": 2,
    "zone": "metro",
    "latitude": 44.369126,
    "longitude": 0.468623,
    "slug": "lot-et-garonne"
  },
  {
    "code": "48",
    "region": "76",
    "chefLieu": "48095",
    "nom": "Lozère",
    "typeLiaison": 3,
    "zone": "metro",
    "latitude": 44.542613,
    "longitude": 3.489919,
    "slug": "lozere"
  },
  {
    "code": "49",
    "region": "52",
    "chefLieu": "49007",
    "nom": "Maine-et-Loire",
    "typeLiaison": 0,
    "zone": "metro",
    "latitude": 47.389695,
    "longitude": -0.559834,
    "slug": "maine-et-loire"
  },
  {
    "code": "50",
    "region": "28",
    "chefLieu": "50502",
    "nom": "Manche",
    "typeLiaison": 3,
    "zone": "metro",
    "latitude": 49.09192,
    "longitude": -1.342297,
    "slug": "manche"
  },
  {
    "code": "51",
    "region": "44",
    "chefLieu": "51108",
    "nom": "Marne",
    "typeLiaison": 3,
    "zone": "metro",
    "latitude": 48.961144,
    "longitude": 4.21828,
    "slug": "marne"
  },
  {
    "code": "52",
    "region": "44",
    "chefLieu": "52121",
    "nom": "Haute-Marne",
    "typeLiaison": 3,
    "zone": "metro",
    "latitude": 48.132831,
    "longitude": 5.258848,
    "slug": "haute-marne"
  },
  {
    "code": "53",
    "region": "52",
    "chefLieu": "53130",
    "nom": "Mayenne",
    "typeLiaison": 3,
    "zone": "metro",
    "latitude": 48.150687,
    "longitude": -0.644079,
    "slug": "mayenne"
  },
  {
    "code": "54",
    "region": "44",
    "chefLieu": "54395",
    "nom": "Meurthe-et-Moselle",
    "typeLiaison": 0,
    "zone": "metro",
    "latitude": 48.956267,
    "longitude": 6.276536,
    "slug": "meurthe-et-moselle"
  },
  {
    "code": "55",
    "region": "44",
    "chefLieu": "55029",
    "nom": "Meuse",
    "typeLiaison": 3,
    "zone": "metro",
    "latitude": 49.013887,
    "longitude": 5.37138,
    "slug": "meuse"
  },
  {
    "code": "56",
    "region": "53",
    "chefLieu": "56260",
    "nom": "Morbihan",
    "typeLiaison": 2,
    "zone": "metro",
    "latitude": 47.746977,
    "longitude": -2.883949,
    "slug": "morbihan"
  },
  {
    "code": "57",
    "region": "44",
    "chefLieu": "57463",
    "nom": "Moselle",
    "typeLiaison": 3,
    "zone": "metro",
    "latitude": 49.018482,
    "longitude": 6.764343,
    "slug": "moselle"
  },
  {
    "code": "58",
    "region": "27",
    "chefLieu": "58194",
    "nom": "Nièvre",
    "typeLiaison": 3,
    "zone": "metro",
    "latitude": 47.119859,
    "longitude": 3.537924,
    "slug": "nievre"
  },
  {
    "code": "59",
    "region": "32",
    "chefLieu": "59350",
    "nom": "Nord",
    "typeLiaison": 2,
    "zone": "metro",
    "latitude": 50.528865,
    "longitude": 3.14785,
    "slug": "nord"
  },
  {
    "code": "60",
    "region": "32",
    "chefLieu": "60057",
    "nom": "Oise",
    "typeLiaison": 5,
    "zone": "metro",
    "latitude": 49.409381,
    "longitude": 2.426108,
    "slug": "oise"
  },
  {
    "code": "61",
    "region": "28",
    "chefLieu": "61001",
    "nom": "Orne",
    "typeLiaison": 5,
    "zone": "metro",
    "latitude": 48.577079,
    "longitude": 0.057956,
    "slug": "orne"
  },
  {
    "code": "62",
    "region": "32",
    "chefLieu": "62041",
    "nom": "Pas-de-Calais",
    "typeLiaison": 2,
    "zone": "metro",
    "latitude": 50.513739,
    "longitude": 2.373076,
    "slug": "pas-de-calais"
  },
  {
    "code": "63",
    "region": "84",
    "chefLieu": "63113",
    "nom": "Puy-de-Dôme",
    "typeLiaison": 2,
    "zone": "metro",
    "latitude": 45.771304,
    "longitude": 3.186207,
    "slug": "puy-de-dome"
  },
  {
    "code": "64",
    "region": "75",
    "chefLieu": "64445",
    "nom": "Pyrénées-Atlantiques",
    "typeLiaison": 4,
    "zone": "metro",
    "latitude": 43.186959,
    "longitude": -0.882296,
    "slug": "pyrenees-atlantiques"
  },
  {
    "code": "65",
    "region": "76",
    "chefLieu": "65440",
    "nom": "Hautes-Pyrénées",
    "typeLiaison": 4,
    "zone": "metro",
    "latitude": 43.142116,
    "longitude": 0.159228,
    "slug": "hautes-pyrenees"
  },
  {
    "code": "66",
    "region": "76",
    "chefLieu": "66136",
    "nom": "Pyrénées-Orientales",
    "typeLiaison": 4,
    "zone": "metro",
    "latitude": 42.625993,
    "longitude": 2.450218,
    "slug": "pyrenees-orientales"
  },
  {
    "code": "67",
    "region": "44",
    "chefLieu": "67482",
    "nom": "Bas-Rhin",
    "typeLiaison": 2,
    "zone": "metro",
    "latitude": 48.599128,
    "longitude": 7.585385,
    "slug": "bas-rhin"
  },
  {
    "code": "68",
    "region": "44",
    "chefLieu": "68066",
    "nom": "Haut-Rhin",
    "typeLiaison": 2,
    "zone": "metro",
    "latitude": 47.866335,
    "longitude": 7.232457,
    "slug": "haut-rhin"
  },
  {
    "code": "69",
    "region": "84",
    "chefLieu": "69123",
    "nom": "Rhône",
    "typeLiaison": 2,
    "zone": "metro",
    "latitude": 45.879514,
    "longitude": 4.701336,
    "slug": "rhone"
  },
  {
    "code": "70",
    "region": "27",
    "chefLieu": "70550",
    "nom": "Haute-Saône",
    "typeLiaison": 3,
    "zone": "metro",
    "latitude": 47.638427,
    "longitude": 6.098146,
    "slug": "haute-saone"
  },
  {
    "code": "71",
    "region": "27",
    "chefLieu": "71270",
    "nom": "Saône-et-Loire",
    "typeLiaison": 0,
    "zone": "metro",
    "latitude": 46.656179,
    "longitude": 4.542444,
    "slug": "saone-et-loire"
  },
  {
    "code": "72",
    "region": "52",
    "chefLieu": "72181",
    "nom": "Sarthe",
    "typeLiaison": 3,
    "zone": "metro",
    "latitude": 48.02603,
    "longitude": 0.232969,
    "slug": "sarthe"
  },
  {
    "code": "73",
    "region": "84",
    "chefLieu": "73065",
    "nom": "Savoie",
    "typeLiaison": 3,
    "zone": "metro",
    "latitude": 45.495147,
    "longitude": 6.403646,
    "slug": "savoie"
  },
  {
    "code": "74",
    "region": "84",
    "chefLieu": "74010",
    "nom": "Haute-Savoie",
    "typeLiaison": 3,
    "zone": "metro",
    "latitude": 46.04514,
    "longitude": 6.425648,
    "slug": "haute-savoie"
  },
  {
    "code": "75",
    "region": "11",
    "chefLieu": "75056",
    "nom": "Paris",
    "typeLiaison": 0,
    "zone": "metro",
    "latitude": 48.859161,
    "longitude": 2.345901,
    "slug": "paris"
  },
  {
    "code": "76",
    "region": "28",
    "chefLieu": "76540",
    "nom": "Seine-Maritime",
    "typeLiaison": 3,
    "zone": "metro",
    "latitude": 49.661557,
    "longitude": 0.927917,
    "slug": "seine-maritime"
  },
  {
    "code": "77",
    "region": "11",
    "chefLieu": "77288",
    "nom": "Seine-et-Marne",
    "typeLiaison": 0,
    "zone": "metro",
    "latitude": 48.619879,
    "longitude": 2.974395,
    "slug": "seine-et-marne"
  },
  {
    "code": "78",
    "region": "11",
    "chefLieu": "78646",
    "nom": "Yvelines",
    "typeLiaison": 4,
    "zone": "metro",
    "latitude": 48.761592,
    "longitude": 1.836919,
    "slug": "yvelines"
  },
  {
    "code": "79",
    "region": "75",
    "chefLieu": "79191",
    "nom": "Deux-Sèvres",
    "typeLiaison": 4,
    "zone": "metro",
    "latitude": 46.538998,
    "longitude": -0.335803,
    "slug": "deux-sevres"
  },
  {
    "code": "80",
    "region": "32",
    "chefLieu": "80021",
    "nom": "Somme",
    "typeLiaison": 3,
    "zone": "metro",
    "latitude": 49.969026,
    "longitude": 2.29137,
    "slug": "somme"
  },
  {
    "code": "81",
    "region": "76",
    "chefLieu": "81004",
    "nom": "Tarn",
    "typeLiaison": 2,
    "zone": "metro",
    "latitude": 43.792172,
    "longitude": 2.239716,
    "slug": "tarn"
  },
  {
    "code": "82",
    "region": "76",
    "chefLieu": "82121",
    "nom": "Tarn-et-Garonne",
    "typeLiaison": 2,
    "zone": "metro",
    "latitude": 44.082056,
    "longitude": 1.367237,
    "slug": "tarn-et-garonne"
  },
  {
    "code": "83",
    "region": "93",
    "chefLieu": "83137",
    "nom": "Var",
    "typeLiaison": 2,
    "zone": "metro",
    "latitude": 43.394407,
    "longitude": 6.294842,
    "slug": "var"
  },
  {
    "code": "84",
    "region": "93",
    "chefLieu": "84007",
    "nom": "Vaucluse",
    "typeLiaison": 2,
    "zone": "metro",
    "latitude": 44.045027,
    "longitude": 5.203283,
    "slug": "vaucluse"
  },
  {
    "code": "85",
    "region": "52",
    "chefLieu": "85191",
    "nom": "Vendée",
    "typeLiaison": 3,
    "zone": "metro",
    "latitude": 46.67523,
    "longitude": -1.468278,
    "slug": "vendee"
  },
  {
    "code": "86",
    "region": "75",
    "chefLieu": "86194",
    "nom": "Vienne",
    "typeLiaison": 3,
    "zone": "metro",
    "latitude": 46.612381,
    "longitude": 0.555286,
    "slug": "vienne"
  },
  {
    "code": "87",
    "region": "75",
    "chefLieu": "87085",
    "nom": "Haute-Vienne",
    "typeLiaison": 3,
    "zone": "metro",
    "latitude": 45.919452,
    "longitude": 1.269595,
    "slug": "haute-vienne"
  },
  {
    "code": "88",
    "region": "44",
    "chefLieu": "88160",
    "nom": "Vosges",
    "typeLiaison": 4,
    "zone": "metro",
    "latitude": 48.16332,
    "longitude": 6.296381,
    "slug": "vosges"
  },
  {
    "code": "89",
    "region": "27",
    "chefLieu": "89024",
    "nom": "Yonne",
    "typeLiaison": 5,
    "zone": "metro",
    "latitude": 47.856237,
    "longitude": 3.594545,
    "slug": "yonne"
  },
  {
    "code": "90",
    "region": "27",
    "chefLieu": "90010",
    "nom": "Territoire de Belfort",
    "typeLiaison": 2,
    "zone": "metro",
    "latitude": 47.629078,
    "longitude": 6.948721,
    "slug": "territoire-de-belfort"
  },
  {
    "code": "91",
    "region": "11",
    "chefLieu": "91228",
    "nom": "Essonne",
    "typeLiaison": 5,
    "zone": "metro",
    "latitude": 48.530395,
    "longitude": 2.250147,
    "slug": "essonne"
  },
  {
    "code": "92",
    "region": "11",
    "chefLieu": "92050",
    "nom": "Hauts-de-Seine",
    "typeLiaison": 4,
    "zone": "metro",
    "latitude": 48.840228,
    "longitude": 2.241115,
    "slug": "hauts-de-seine"
  },
  {
    "code": "93",
    "region": "11",
    "chefLieu": "93008",
    "nom": "Seine-Saint-Denis",
    "typeLiaison": 3,
    "zone": "metro",
    "latitude": 48.909918,
    "longitude": 2.445427,
    "slug": "seine-saint-denis"
  },
  {
    "code": "94",
    "region": "11",
    "chefLieu": "94028",
    "nom": "Val-de-Marne",
    "typeLiaison": 2,
    "zone": "metro",
    "latitude": 48.774866,
    "longitude": 2.461937,
    "slug": "val-de-marne"
  },
  {
    "code": "95",
    "region": "11",
    "chefLieu": "95500",
    "nom": "Val-d'Oise",
    "typeLiaison": 2,
    "zone": "metro",
    "latitude": 49.070438,
    "longitude": 2.099664,
    "slug": "val-d-oise"
  },
  {
    "code": "971",
    "region": "01",
    "chefLieu": "97105",
    "nom": "Guadeloupe",
    "typeLiaison": 3,
    "zone": "drom",
    "slug": "guadeloupe"
  },
  {
    "code": "972",
    "region": "02",
    "chefLieu": "97209",
    "nom": "Martinique",
    "typeLiaison": 3,
    "zone": "drom",
    "slug": "martinique"
  },
  {
    "code": "973",
    "region": "03",
    "chefLieu": "97302",
    "nom": "Guyane",
    "typeLiaison": 3,
    "zone": "drom",
    "slug": "guyane"
  },
  {
    "code": "974",
    "region": "04",
    "chefLieu": "97411",
    "nom": "La Réunion",
    "typeLiaison": 0,
    "zone": "drom",
    "slug": "la-reunion"
  },
  {
    "code": "976",
    "region": "06",
    "chefLieu": "97611",
    "nom": "Mayotte",
    "typeLiaison": 0,
    "zone": "drom",
    "slug": "mayotte"
  },
  {
    "code": "975",
    "region": "975",
    "chefLieu": "97502",
    "nom": "Saint-Pierre-et-Miquelon",
    "typeLiaison": 0,
    "zone": "com",
    "slug": "saint-pierre-et-miquelon"
  },
  {
    "code": "977",
    "region": "977",
    "chefLieu": "97701",
    "nom": "Saint-Barthélemy",
    "typeLiaison": 0,
    "zone": "com",
    "slug": "saint-barthelemy"
  },
  {
    "code": "978",
    "region": "978",
    "chefLieu": "97801",
    "nom": "Saint-Martin",
    "typeLiaison": 0,
    "zone": "com",
    "slug": "saint-martin"
  },
  {
    "code": "984",
    "region": "984",
    "chefLieu": "97502",
    "nom": "Terres australes et antarctiques françaises",
    "typeLiaison": 0,
    "zone": "com",
    "slug": "terres-australes-et-antarctiques-francaises"
  },
  {
    "code": "986",
    "region": "986",
    "chefLieu": "98613",
    "nom": "Wallis et Futuna",
    "typeLiaison": 0,
    "zone": "com",
    "slug": "wallis-et-futuna"
  },
  {
    "code": "987",
    "region": "987",
    "chefLieu": "98735",
    "nom": "Polynésie française",
    "typeLiaison": 0,
    "zone": "com",
    "slug": "polynesie-francaise"
  },
  {
    "code": "988",
    "region": "988",
    "chefLieu": "98818",
    "nom": "Nouvelle-Calédonie",
    "typeLiaison": 0,
    "zone": "com",
    "slug": "nouvelle-caledonie"
  },
  {
    "code": "989",
    "region": "989",
    "chefLieu": "98901",
    "nom": "Île de Clipperton",
    "typeLiaison": 0,
    "zone": "com",
    "slug": "ile-de-clipperton"
  }
]