[
  {
    "code": "01",
    "chefLieu": "97105",
    "nom": "Guadeloupe",
    "typeLiaison": 3,
    "zone": "drom",
    "latitude": 16.00019013108165,
    "longitude": -61.72845047449802,
    "slug": "guadeloupe"
  },
  {
    "code": "02",
    "chefLieu": "97209",
    "nom": "Martinique",
    "typeLiaison": 3,
    "zone": "drom",
    "latitude": 14.64057888275025,
    "longitude": -61.06895413174872,
    "slug": "martinique"
  },
  {
    "code": "03",
    "chefLieu": "97302",
    "nom": "Guyane",
    "typeLiaison": 3,
    "zone": "drom",
    "latitude": 4.93398049674308,
    "longitude": -52.316744466324465,
    "slug": "guyane"
  },
  {
    "code": "04",
    "chefLieu": "97411",
    "nom": "La Réunion",
    "typeLiaison": 0,
    "zone": "drom",
    "latitude": -20.932922387443433,
    "longitude": 55.44696968693101,
    "slug": "la-reunion"
  },
  {
    "code": "06",
    "chefLieu": "97611",
    "nom": "Mayotte",
    "typeLiaison": 0,
    "zone": "drom",
    "latitude": -12.790322075934364,
    "longitude": 45.19484670241379,
    "slug": "mayotte"
  },
  {
    "code": "11",
    "chefLieu": "75056",
    "nom": "Île-de-France",
    "typeLiaison": 1,
    "zone": "metro",
    "latitude": 48.85662219553845,
    "longitude": 2.3428764301940275,
    "slug": "ile-de-france"
  },
  {
    "code": "24",
    "chefLieu": "45234",
    "nom": "Centre-Val de Loire",
    "typeLiaison": 2,
    "zone": "metro",
    "latitude": 47.88225457428035,
    "longitude": 1.9166060865850496,
    "slug": "centre-val-de-loire"
  },
  {
    "code": "27",
    "chefLieu": "21231",
    "nom": "Bourgogne-Franche-Comté",
    "typeLiaison": 0,
    "zone": "metro",
    "latitude": 47.32285164788028,
    "longitude": 5.037525259179914,
    "slug": "bourgogne-franche-comte"
  },
  {
    "code": "28",
    "chefLieu": "76540",
    "nom": "Normandie",
    "typeLiaison": 0,
    "zone": "metro",
    "latitude": 49.44149359409315,
    "longitude": 1.0934837447375347,
    "slug": "normandie"
  },
  {
    "code": "32",
    "chefLieu": "59350",
    "nom": "Hauts-de-France",
    "typeLiaison": 4,
    "zone": "metro",
    "latitude": 50.63184422624786,
    "longitude": 3.0470014033678274,
    "slug": "hauts-de-france"
  },
  {
    "code": "44",
    "chefLieu": "67482",
    "nom": "Grand Est",
    "typeLiaison": 2,
    "zone": "metro",
    "latitude": 48.571237835890315,
    "longitude": 7.76774302583265,
    "slug": "grand-est"
  },
  {
    "code": "52",
    "chefLieu": "44109",
    "nom": "Pays de la Loire",
    "typeLiaison": 4,
    "zone": "metro",
    "latitude": 47.232007806068935,
    "longitude": -1.548182418851069,
    "slug": "pays-de-la-loire"
  },
  {
    "code": "53",
    "chefLieu": "35238",
    "nom": "Bretagne",
    "typeLiaison": 0,
    "zone": "metro",
    "latitude": 48.11167721645947,
    "longitude": -1.6818546750693386,
    "slug": "bretagne"
  },
  {
    "code": "75",
    "chefLieu": "33063",
    "nom": "Nouvelle-Aquitaine",
    "typeLiaison": 3,
    "zone": "metro",
    "latitude": 44.85753607622351,
    "longitude": -0.5734441487609747,
    "slug": "nouvelle-aquitaine"
  },
  {
    "code": "76",
    "chefLieu": "31555",
    "nom": "Occitanie",
    "typeLiaison": 1,
    "zone": "metro",
    "latitude": 43.596012824333386,
    "longitude": 1.4321016114247656,
    "slug": "occitanie"
  },
  {
    "code": "84",
    "chefLieu": "69123",
    "nom": "Auvergne-Rhône-Alpes",
    "typeLiaison": 1,
    "zone": "metro",
    "latitude": 45.75493040864208,
    "longitude": 4.83634986919838,
    "slug": "auvergne-rhone-alpes"
  },
  {
    "code": "93",
    "chefLieu": "13055",
    "nom": "Provence-Alpes-Côte d'Azur",
    "typeLiaison": 0,
    "zone": "metro",
    "latitude": 43.29239976270309,
    "longitude": 5.419087615426763,
    "slug": "provence-alpes-cote-d-azur"
  },
  {
    "code": "94",
    "chefLieu": "2A004",
    "nom": "Corse",
    "typeLiaison": 0,
    "zone": "metro",
    "latitude": 41.93471503964258,
    "longitude": 8.700715575393874,
    "slug": "corse"
  },
  {
    "code": "975",
    "chefLieu": "97502",
    "nom": "Saint-Pierre-et-Miquelon",
    "typeLiaison": 0,
    "zone": "com",
    "latitude": 46.8374544,
    "longitude": -56.2120555,
    "slug": "saint-pierre-et-miquelon"
  },
  {
    "code": "977",
    "chefLieu": "97701",
    "nom": "Saint-Barthélemy",
    "typeLiaison": 0,
    "zone": "com",
    "latitude": 17.8967693,
    "longitude": -62.825598,
    "slug": "saint-barthelemy"
  },
  {
    "code": "978",
    "chefLieu": "97801",
    "nom": "Saint-Martin",
    "typeLiaison": 0,
    "zone": "com",
    "latitude": 18.0814066,
    "longitude": -63.0467131,
    "slug": "saint-martin"
  },
  {
    "code": "984",
    "chefLieu": "97502",
    "nom": "Terres australes et antarctiques françaises",
    "typeLiaison": 0,
    "zone": "com",
    "latitude": -49.237442,
    "longitude": 69.622759,
    "slug": "terres-australes-et-antarctiques-francaises"
  },
  {
    "code": "986",
    "chefLieu": "98613",
    "nom": "Wallis et Futuna",
    "typeLiaison": 0,
    "zone": "com",
    "latitude": -13.289402,
    "longitude": -176.204224,
    "slug": "wallis-et-futuna"
  },
  {
    "code": "987",
    "chefLieu": "98735",
    "nom": "Polynésie française",
    "typeLiaison": 0,
    "zone": "com",
    "latitude": -17.0243749,
    "longitude": -144.6434898,
    "slug": "polynesie-francaise"
  },
  {
    "code": "988",
    "chefLieu": "98818",
    "nom": "Nouvelle-Calédonie",
    "typeLiaison": 0,
    "zone": "com",
    "latitude": -21.3019905,
    "longitude": 165.4880773,
    "slug": "nouvelle-caledonie"
  },
  {
    "code": "989",
    "chefLieu": "98901",
    "nom": "Île de Clipperton",
    "typeLiaison": 0,
    "zone": "com",
    "latitude": 10.3021287,
    "longitude": -109.217835,
    "slug": "ile-de-clipperton"
  }
]